,acceleration,altitude,pitch,roll,sr_list,time,yaw,z_velocity
0,1.085205078125,-0.0023351959520672948,-2.1681545222701453,-0.03965324796369615,0.0,2.5033950805664062e-05,-2.215137306228478,0.0
1,1.086181640625,0.0033505309660795037,-4.289366504563281,-0.0736794372398537,0.024437665939331055,0.02446269989013672,-4.3710991610931025,0.0038777072875004945
2,1.076904296875,0.0096983669270233,-6.360447047184316,-0.106082926782995,0.023862838745117188,0.048325538635253906,-6.477772220991273,0.008311264717350627
3,1.08349609375,0.008710474151099561,-8.3741035521846,-0.14772189708927286,0.02499079704284668,0.07331633567810059,-8.536347572391804,0.0076524270031912926
4,1.086181640625,0.001731400242618264,-10.341123692455888,-0.18643648432614546,0.024368762969970703,0.09768509864807129,-10.53123417999588,0.0028791892882516685
5,1.08447265625,0.0040945154003964035,-12.267139745795438,-0.21895684078305458,0.024397611618041992,0.12208271026611328,-12.484170151128835,0.004493497001901407
6,1.085693359375,0.008464366055106894,-14.142346828692006,-0.25453714773025254,0.025296926498413086,0.14737963676452637,-14.392250319451579,0.00737253624999914
7,1.082763671875,0.013825579865372077,-15.972364960722919,-0.2919091226665749,0.02438664436340332,0.1717662811279297,-16.256474606832676,0.011036573096270262
8,1.081298828125,0.010859097280089998,-17.759672485779756,-0.3282874635844725,0.02475881576538086,0.19652509689331055,-18.079063711067207,0.00903965301374759
9,1.0888671875,0.014622054543954875,-19.497116918661295,-0.3570418517057092,0.024629831314086914,0.22115492820739746,-19.854418298009882,0.011585994220797508
10,1.085205078125,0.013993467122624139,-21.183613140883246,-0.3933449231488532,0.02494072914123535,0.2460956573486328,-21.582174335444606,0.011165940061079384
11,1.076171875,0.01308451463766275,-22.83733661222517,-0.41262217165339155,0.024576663970947266,0.2706723213195801,-23.245545869008634,0.010549533859627546
12,1.091552734375,0.011795790837287115,-24.45261995116004,-0.44700557459955065,0.024725675582885742,0.2953979969024658,-24.902457285361333,0.00968085264061457
13,1.07666015625,0.011829715905986688,-26.027366932441595,-0.47969882449100004,0.025349855422973633,0.32074785232543945,-26.508758347507886,0.009703157217986917
14,1.084716796875,0.013868508819148815,-27.55898996178588,-0.5065380969545663,0.0249326229095459,0.34568047523498535,-28.080307615924823,0.011066025537509995
15,1.08203125,0.012250836622960434,-29.063398062524346,-0.539555967548537,0.024603843688964844,0.3702843189239502,-29.60792268264881,0.00997021288276212
16,1.08056640625,0.00695215481166727,-30.53321101151461,-0.5666430692165882,0.024847745895385742,0.39513206481933594,-31.104111764003324,0.006416113291863121
17,1.082763671875,0.001653473000374106,-31.962736596847492,-0.5934644965422489,0.024968862533569336,0.4201009273529053,-32.54671453796347,0.002879253597000261
18,1.076904296875,0.008696329479484888,-33.359640570125265,-0.6175326574407135,0.02492070198059082,0.4450216293334961,-33.96528202120869,0.0075894315610854505
19,1.07763671875,0.011422332759508862,-34.72522759863476,-0.6425727172598446,0.0250396728515625,0.4700613021850586,-35.349680271013895,0.009403887695146503
20,1.07861328125,0.014808502625603239,-36.056780138227374,-0.6712392331322143,0.024945735931396484,0.4950070381164551,-36.70196817995031,0.011666244860720288
21,1.081298828125,0.016849996608935384,-37.35813597336105,-0.6856846313100098,0.0249788761138916,0.5199859142303467,-38.01175450832783,0.013028391803083319
22,1.08740234375,0.0178998577110832,-38.62643588377817,-0.7087637062068783,0.024843692779541016,0.5448296070098877,-39.29012275422217,0.013732702760035999
23,1.1005859375,0.025958754107134895,-39.85295209965557,-0.7329217368455261,0.024672746658325195,0.5695023536682129,-40.54004941229143,0.01917656119194162
24,1.076904296875,0.03440022003556337,-41.05744767986335,-0.750789850433545,0.02480769157409668,0.5943100452423096,-41.765630148038184,0.024847830458850997
25,1.0859375,0.032835746436026055,-42.23086953877504,-0.7744478012179014,0.024991750717163086,0.6193017959594727,-42.96609631082337,0.023804503791288574
26,1.079345703125,0.02725879334789212,-43.37660606385684,-0.7880149627053173,0.025015830993652344,0.644317626953125,-44.125219154775046,0.020088887941503254
27,1.089599609375,0.02869088626105565,-44.49421295083097,-0.8104584699185022,0.024597644805908203,0.6689152717590332,-45.2644854804597,0.021059233493190346
28,1.088623046875,0.03375323378569888,-45.579874522591396,-0.8345849118305051,0.024776935577392578,0.6936922073364258,-46.384370394486005,0.02446451573564161
29,1.08642578125,0.03752174803439175,-46.64884568134953,-0.852494969017494,0.024905681610107422,0.7185978889465332,-47.47392684021652,0.026986372868275085
30,1.08203125,0.036948868293248435,-47.68795729228353,-0.8673587718182553,0.02477264404296875,0.743370532989502,-48.52727941309439,0.026600947894293275
31,1.084228515625,0.04071738254194131,-48.696436382849555,-0.8879177793666713,0.024525880813598633,0.7678964138031006,-49.56114000205353,0.029161857787352977
32,1.083251953125,0.038086141283261696,-49.68074842403355,-0.90959529590138,0.024443626403808594,0.7923400402069092,-50.56115311304917,0.027367769616738466
33,1.0908203125,0.046527607211690164,-50.64179297141224,-0.9334557982747563,0.025433778762817383,0.8177738189697266,-51.545228188902996,0.03289943284771784
34,1.0869140625,0.051643930154199894,-51.5751665127798,-0.9530339785720047,0.024679899215698242,0.8424537181854248,-52.49806625442763,0.036354554292767724
35,1.079833984375,0.05602184626034216,-52.49148110979828,-0.9673228767428945,0.02467179298400879,0.8671255111694336,-53.435459769845394,0.039311991090449895
36,1.084716796875,0.05913017729087656,-53.38929342049375,-0.9817268057823796,0.024684667587280273,0.8918101787567139,-54.34176132602664,0.041410683203373794
37,1.078369140625,0.060233596231121,-54.26315127664498,-0.9902636365771919,0.02523970603942871,0.9170498847961426,-55.2120180074176,0.04213930958444225
38,1.084716796875,0.0573242553186104,-55.11313090575793,-1.0041509474264192,0.02872467041015625,0.9457745552062988,-56.08077229342947,0.040451247910761025
39,1.0830078125,0.0681022515933742,-55.942429198782634,-1.0229384089137425,0.028694868087768555,0.9744694232940674,-56.927332346623906,0.04671136629487841
40,1.0791015625,0.07654371752180268,-56.75827580322286,-1.0335429617363883,0.02890467643737793,1.0033740997314453,-57.75286652646855,0.051578782787567716
41,1.078857421875,0.08627886254099237,-57.54880879177873,-1.0422381923360862,0.02883458137512207,1.0322086811065674,-58.554991858106845,0.057205790680475196
42,1.09326171875,0.08471438894145507,-58.32078633883144,-1.0610782337076397,0.028749704360961914,1.0609583854675293,-59.343645163188434,0.05629884013709174
43,1.083740234375,0.09142876350626125,-59.07599088642939,-1.0796067172499768,0.03107166290283203,1.0920300483703613,-60.10951296188608,0.05990039320159058
44,1.083251953125,0.0931387925540794,-59.80889783211051,-1.0942935785685466,0.029051780700683594,1.121081829071045,-60.849649431785494,0.06088141685807274
45,1.080810546875,0.10218966191462016,-60.52383654809891,-1.1121352754047922,0.02915167808532715,1.150233507156372,-61.57782258661243,0.06605600139602444
46,1.078369140625,0.10725200943926338,-61.22503067882411,-1.1211594083866836,0.0287017822265625,1.1789352893829346,-62.290261242491596,0.06899562577467958
47,1.0869140625,0.11129834810397142,-61.898370063069336,-1.1345811868706994,0.02859783172607422,1.2075331211090088,-62.97862701586205,0.071353810772448
48,1.0849609375,0.11935724450002311,-62.55984541308415,-1.1461822248425058,0.028729677200317383,1.2362627983093262,-63.656609657822685,0.07602893952512019
49,1.099853515625,0.11906235269538555,-63.21123835133376,-1.178548510400693,0.02882862091064453,1.2650914192199707,-64.33920855963531,0.07585845397099465
50,1.0791015625,0.1237677478532818,-63.84628854807781,-1.1879846383118708,0.029052734375,1.2941441535949707,-64.980364003161,0.07855779550695306
51,1.0830078125,0.11778712913049745,-64.46353545004052,-1.1985925085934785,0.029466629028320312,1.323610782623291,-65.61322522719848,0.0751750882886529
52,1.100341796875,0.11581720927569591,-65.06131826389478,-1.229044420664652,0.029161691665649414,1.3527724742889404,-66.24313809067846,0.07404922776051695
53,1.085205078125,0.11823719496478319,-65.65327086827604,-1.2436221773158884,0.028934717178344727,1.3817071914672852,-66.83818751969093,0.0754431620633657
54,1.079833984375,0.13426713823380523,-66.21913318646834,-1.2506505851295755,0.028628826141357422,1.4103360176086426,-67.4205647053937,0.0847752150029872
55,1.0888671875,0.1292727818173475,-66.77582308273138,-1.2634912301025656,0.02841663360595703,1.4387526512145996,-67.99409318480767,0.08184597029505039
56,1.08203125,0.12399863907521279,-67.32279045419811,-1.2751680173877926,0.028921842575073242,1.4676744937896729,-68.55418863934231,0.07880666258817079
57,1.08740234375,0.1177331331775234,-67.85227626939114,-1.2849513298988495,0.02938675880432129,1.4970612525939941,-69.09787262810835,0.0752531880797991
58,1.0810546875,0.1157320613827953,-68.37370581975617,-1.289071782878105,0.02896571159362793,1.526026964187622,-69.62964009842968,0.07410178544737979
59,1.08740234375,0.1186834786837366,-68.88027723055191,-1.29791748217321,0.029103517532348633,1.5551304817199707,-70.1423882202476,0.07579196905815283
60,1.103759765625,0.12102209515288549,-69.37009348729154,-1.3096626466816266,0.02901172637939453,1.5841422080993652,-70.65361253982334,0.07713545826120022
61,1.077880859375,0.1297123286422746,-69.8513336915386,-1.3148124341081726,0.028928756713867188,1.6130709648132324,-71.13515527605173,0.07826443778902778
62,1.076416015625,0.14177904871741404,-70.32124103808869,-1.3153683465239583,0.02872776985168457,1.641798734664917,-71.61239493744188,0.08083149343463122
63,1.080322265625,0.14317721656187798,-70.7733492187446,-1.325908818249773,0.02877068519592285,1.6705694198608398,-72.07904589496266,0.08230028048607761
64,1.076171875,0.13891377074968303,-71.21665667596554,-1.3405659209504608,0.029045820236206055,1.699615240097046,-72.53232407080517,0.0846271273046543
65,1.07666015625,0.14196353585903496,-71.65848907871154,-1.3457244155838604,0.02880263328552246,1.7284178733825684,-72.97631656338343,0.08477756859799025
66,1.07958984375,0.15103073191902097,-72.08458841189338,-1.3468370977846893,0.028942584991455078,1.7573604583740234,-73.41014642524044,0.0871198989814481
67,1.0830078125,0.15308877297623014,-72.50296043894753,-1.3531071490051003,0.029043912887573242,1.7864043712615967,-73.82312966552975,0.08463685604669278
68,1.087158203125,0.14780953426350935,-72.9036453101155,-1.357690349890032,0.0290524959564209,1.8154568672180176,-74.23227973851004,0.08360521321294617
69,1.101806640625,0.14519526137909636,-73.30446869277438,-1.3697042209300474,0.028769731521606445,1.844226598739624,-74.63740077829853,0.07954439090246665
70,1.083984375,0.1432411844261655,-73.69660042898087,-1.3750404112835384,0.028636693954467773,1.8728632926940918,-75.03725082100848,0.07882716471595148
71,1.08349609375,0.1362321360628232,-74.06974854056433,-1.3926644922894265,0.028923749923706055,1.9017870426177979,-75.42038736231144,0.07540476291254541
72,1.084716796875,0.13361780136113807,-74.44469483420447,-1.398195245769616,0.02877187728881836,1.9305589199066162,-75.79644276671226,0.07475904016720468
73,1.080078125,0.12465461287766218,-74.80550418264964,-1.4024169859632094,0.028768539428710938,1.9593274593353271,-76.16306891481797,0.06954403280786521
74,1.082275390625,0.11698505749731211,-75.15984568551627,-1.4056064262759327,0.031160831451416016,1.9904882907867432,-76.52350834130773,0.06407902994789727
75,1.07958984375,0.11932144164492783,-75.50768073221967,-1.4107627448599307,0.029138565063476562,2.0196268558502197,-76.86292446225679,0.06651120682335292
76,1.0859375,0.12693988871639392,-75.83307252814771,-1.4082452792113103,0.02889275550842285,2.0485196113586426,-77.20281441436254,0.07445997613762781
77,1.07666015625,0.13328907680765809,-76.1574621557324,-1.4107224237378202,0.02854180335998535,2.077061414718628,-77.53445945654718,0.0817043731659384
78,1.082763671875,0.12965882219617839,-76.46611603258837,-1.4138968162030296,0.028565645217895508,2.1056270599365234,-77.862971426067,0.07487611794285408
79,1.085205078125,0.12498601586006132,-76.77667112626827,-1.4145047836671099,0.028699636459350586,2.134326696395874,-78.17570563388085,0.07034803490580914
80,1.085205078125,0.12633080614928305,-77.07627886385248,-1.4162778428213711,0.029228925704956055,2.16355562210083,-78.48153553446112,0.06885249249467665
81,1.076904296875,0.12295198726961075,-77.37317008189287,-1.4088916560197133,0.028902530670166016,2.192458152770996,-78.77594881204753,0.06554194703188002
82,1.087890625,0.1280313785534868,-77.65478986661269,-1.4145770937987339,0.029263734817504883,2.221721887588501,-79.0741331513502,0.06773051772266885
83,1.086669921875,0.11634927187097432,-77.9352016948227,-1.4235513104820554,0.028973817825317383,2.2506957054138184,-79.34941556874426,0.05556673790464393
84,1.0908203125,0.11733792084843941,-78.21107001142131,-1.4295231140571787,0.029289722442626953,2.2799854278564453,-79.62844297185809,0.05045803740191549
85,1.08349609375,0.11073535184326432,-78.47823062241764,-1.436173795998437,0.02848076820373535,2.3084661960601807,-79.89063553077216,0.047637605340579384
86,1.0849609375,0.11474811910577444,-78.73390755354578,-1.4373985217571592,0.028677701950073242,2.337143898010254,-80.15397124128594,0.05368532766429359
87,1.081298828125,0.11876102310803972,-78.9807522602801,-1.438481712223623,0.02881455421447754,2.3659584522247314,-80.40897348688414,0.055036091537838706
88,1.07958984375,0.12109748427940702,-79.22872417261723,-1.4414912874374732,0.02867269515991211,2.3946311473846436,-80.65887125937536,0.052988931345149703
89,1.078857421875,0.12109748427940702,-79.47059121571823,-1.4438554369896277,0.02904367446899414,2.4236748218536377,-80.90250709897082,0.050467074212516234
90,1.08984375,0.12211364528451582,-79.70468083988288,-1.4490366741855663,0.029080867767333984,2.4527556896209717,-81.14578784964242,0.05143487578156091
91,1.084228515625,0.11015384736629329,-79.93302506702048,-1.451044575901332,0.029251575469970703,2.4820072650909424,-81.37145038350509,0.04205963325509011
92,1.077880859375,0.1111454412246873,-80.16397261753096,-1.4488953716886557,0.02884078025817871,2.510848045349121,-81.59686232669812,0.044426749067766426
93,1.0849609375,0.11053603857985593,-80.3868542099766,-1.4554505303582563,0.028508663177490234,2.5393567085266113,-81.82839229015384,0.03853881831614059
94,1.0869140625,0.10426500967208625,-80.60179658169585,-1.4602568711395547,0.028802871704101562,2.568159580230713,-82.04182878079523,0.03145499104145829
95,1.0791015625,0.1059921365863093,-80.81789779956136,-1.4636402177762349,0.02874159812927246,2.5969011783599854,-82.25260670728518,0.029499079922373193
96,1.08544921875,0.10871107006609378,-81.01776402399358,-1.4689481647170635,0.028824806213378906,2.6257259845733643,-82.45934486748756,0.02897249058998334
97,1.072021484375,0.10477646179699676,-81.22148697941122,-1.4716912139835638,0.029289722442626953,2.655015707015991,-82.65765827349443,0.02600496267567561
98,1.094482421875,0.10315428719485353,-81.419775392845,-1.470957990254863,0.029540538787841797,2.684556245803833,-82.85345267224078,0.026777799222177323
99,1.07958984375,0.09954835758606308,-81.60905416887856,-1.4644245482691893,0.0288088321685791,2.713365077972412,-83.04334745884998,0.01843155577538828
100,1.082763671875,0.09688326657559657,-81.79784111286999,-1.466568854836423,0.02868175506591797,2.74204683303833,-83.23372881862083,0.012015482884034005
101,1.087158203125,0.10328313030020894,-81.97814964435373,-1.4719321157071357,0.02842259407043457,2.7704694271087646,-83.42249698744561,0.010141277959985708
102,1.082275390625,0.1003373071072302,-82.15191553913162,-1.4731292907698557,0.028798818588256836,2.7992682456970215,-83.60105839284454,0.009343399776945916
103,1.084716796875,0.11097681246531238,-82.32333212829877,-1.4855806571442947,0.029267549514770508,2.828535795211792,-83.78192959584538,0.011800607771751978
104,1.084716796875,0.09929470184609201,-82.48930577834179,-1.494693816801086,0.028795719146728516,2.8573315143585205,-83.9459154751162,0.004058098400620007
105,1.08349609375,0.10803091502474643,-82.6521986313156,-1.5044535933424192,0.02942371368408203,2.8867552280426025,-84.11437176963112,0.003832024256050225
106,1.088134765625,0.10569456635808663,-82.81230840488502,-1.5089099583943664,0.0288999080657959,2.9156551361083984,-84.27952454825166,-0.000454979649061462
107,1.078857421875,0.10569456635808663,-82.96609079977561,-1.5089007935091958,0.028990507125854492,2.944645643234253,-84.42896880013559,-0.00281316464682988
108,1.08544921875,0.11910358666652528,-83.12220164415992,-1.504730531144209,0.028731822967529297,2.9733774662017822,-84.58025509918716,0.0002899694715965045
109,1.07470703125,0.11016455920268627,-83.27622912171607,-1.5027997456525872,0.029024600982666016,3.0024020671844482,-84.73066243730614,-0.004672562690971446
0,1.084228515625,0.11516890471967428,-83.40700050782758,-1.510230979039843,0.029024600982666016,3.031970977783203,-84.87454327354503,-0.004672562690971446
1,1.082763671875,0.10648333162782236,-83.54507757648443,-1.5024156458352036,0.05047130584716797,3.082442283630371,-85.01526146637087,-0.010240059688752289
2,1.10546875,0.10109625194191921,-83.68194131041793,-1.5155732508934368,0.05807042121887207,3.140512704849243,-85.17189671536093,-0.008403486621835547
3,1.075439453125,0.09736184629191413,-83.8166854017594,-1.510673705165767,0.05046558380126953,3.1909782886505127,-85.30545001928493,-0.00851094372283571
4,1.0859375,0.09796882699475859,-83.94997695696112,-1.5116911033474316,0.024986743927001953,3.2159650325775146,-85.43176111411692,-0.009500009545142832
5,1.08935546875,0.09926273736161903,-84.07375781850513,-1.5179052731880789,0.02500772476196289,3.2409727573394775,-85.55967029093625,-0.01796972202851426
6,1.0859375,0.0969263160260897,-84.19960111821568,-1.5203437916124853,0.024669885635375977,3.2656426429748535,-85.69157538970084,-0.016618934398477968
7,1.08740234375,0.0986024831806364,-84.32743154215932,-1.5229674843089176,0.0247647762298584,3.290407419204712,-85.82064381939611,-0.012451568073860369
8,1.07958984375,0.10060737966293928,-84.44125867270056,-1.5268562337664038,0.02495861053466797,3.31536602973938,-85.95248104578265,-0.007559279398518094
9,1.07080078125,0.09959135717990407,-84.55630457658847,-1.534204252426945,0.024863719940185547,3.3402297496795654,-86.07081209732617,-0.0070889376890549746
10,1.08056640625,0.10426423618671535,-84.66065496337474,-1.5373394785435985,0.024725914001464844,3.3649556636810303,-86.19342321968185,-0.005629336148283206
11,1.085693359375,0.11401639655736147,-84.77151636037172,-1.539111938976464,0.02471756935119629,3.3896732330322266,-86.30762655289094,-0.0003970976222782622
12,1.08544921875,0.11902082208885574,-84.88061961900806,-1.551433361140932,0.02519679069519043,3.414870023727417,-86.41207555475735,-0.0020935576233838287
13,1.08056640625,0.11732086312678774,-84.98687265207593,-1.5544729773765293,0.024776935577392578,3.4396469593048096,-86.5198209367914,-0.010237679720738057
14,1.085205078125,0.12232547384047095,-85.09106221862615,-1.5590512907946459,0.024664640426635742,3.4643115997314453,-86.62277600874849,-0.007665857537394694
15,1.083251953125,0.12331718105878252,-85.19125228878335,-1.5609583888802536,0.02505183219909668,3.489363431930542,-86.72697963023256,-0.004559696389212709
16,1.0888671875,0.11836634616293978,-85.2835981811122,-1.5716243167807606,0.024956703186035156,3.514320135116577,-86.82219266184777,-0.009630728053632253
17,1.079833984375,0.10701552712575577,-85.36939855789421,-1.5765032524706069,0.02468276023864746,3.5390028953552246,-86.91585475271131,-0.022516569383543038
18,1.088134765625,0.09929772233882758,-85.45985818636021,-1.5823976976159102,0.024934768676757812,3.5639376640319824,-87.01516822091418,-0.028856226744061884
19,1.0703125,0.10326266286237328,-85.54345198660286,-1.5833922609988096,0.024613618850708008,3.5885512828826904,-87.09331373237455,-0.023142876090568244
20,1.079833984375,0.10153835996905855,-85.62684211714217,-1.5880352185574946,0.02530074119567871,3.613852024078369,-87.18489064654271,-0.022764266119647332
21,1.09912109375,0.09821564274323905,-85.71247543383932,-1.5837175381264925,0.02462291717529297,3.638474941253662,-87.26778941112921,-0.023876053990476993
22,1.081787109375,0.09115810743061019,-85.794837983879,-1.5758820889919292,0.024896621704101562,3.6633715629577637,-87.34441252514118,-0.02456180620675288
23,1.0771484375,0.09344635583945787,-85.87930867210926,-1.5720712073573728,0.024666786193847656,3.6880383491516113,-87.42211839298302,-0.021501295944599128
24,1.07568359375,0.09106224611185439,-85.95922638621866,-1.5726404197699402,0.02499985694885254,3.713038206100464,-87.50748260445319,-0.01789800874240989
25,1.082275390625,0.10140002594176224,-86.04048754826827,-1.5714799805676174,0.03131461143493652,3.7443528175354004,-87.58632857558977,-0.00829376759411359
26,1.083740234375,0.09667936454166039,-86.11959579508996,-1.5679528732748407,0.024565696716308594,3.768918514251709,-87.6616688587423,-0.012832877941271142
27,1.0810546875,0.09294725835305982,-86.19050682636372,-1.5723814382468997,0.025029897689819336,3.7939484119415283,-87.72826763878466,-0.019712646508471297
28,1.089599609375,0.09929665935596475,-86.26481630228503,-1.577266697579626,0.025089740753173828,3.819038152694702,-87.7963826185804,-0.019202390159254963
29,1.0849609375,0.09223952527357226,-86.33259137508792,-1.5791346040273428,0.02499675750732422,3.8440349102020264,-87.86737471507101,-0.02178967923981988
30,1.077392578125,0.08050908410738643,-86.39736178122229,-1.5761406500764727,0.02440667152404785,3.868441581726074,-87.9328474836821,-0.027086458531598388
31,1.092529296875,0.07850400406631251,-86.46647423843613,-1.593947815373615,0.028323650360107422,3.8967652320861816,-88.02196287385767,-0.029033135353947182
32,1.09326171875,0.08114565886102199,-86.52797366203585,-1.599622855007901,0.028935670852661133,3.9257009029388428,-88.08840319416625,-0.025563169210768264
33,1.0810546875,0.07477293077449432,-86.58908484847568,-1.6041818602369031,0.02904486656188965,3.9547457695007324,-88.14946770192417,-0.03211288069965025
34,1.084228515625,0.08511045189620745,-86.64848872537611,-1.608646345490316,0.0292356014251709,3.9839813709259033,-88.21013789684994,-0.019499732894495123
35,1.0791015625,0.08244558255231865,-86.70212430644548,-1.6094165451063671,0.028989791870117188,4.0129711627960205,-88.27214240973036,-0.021594375061058643
36,1.083251953125,0.07510752387478348,-86.76267710867057,-1.6184961022740287,0.02879166603088379,4.041762828826904,-88.3353465772546,-0.02197840726679139
37,1.08837890625,0.07442291373802917,-86.81591842775573,-1.6169041067090681,0.0287168025970459,4.07047963142395,-88.39432328589712,-0.024707847981095585
38,1.078369140625,0.06342519208416916,-86.87221961743953,-1.6213490161781605,0.030812740325927734,4.101292371749878,-88.44515358137339,-0.03297764483103668
39,1.08447265625,0.06675313375645388,-86.92712190921391,-1.6275106411021871,0.028952598571777344,4.130244970321655,-88.49873859717223,-0.03242002538351772
40,1.082763671875,0.06881164332748142,-86.97501023513819,-1.6331873366824858,0.02937483787536621,4.1596198081970215,-88.5574076966665,-0.031252070244632335
41,1.0869140625,0.065815002438041,-87.02611332925586,-1.6358749057356543,0.029019594192504883,4.188639402389526,-88.61851572765666,-0.033555491403333734
42,1.084716796875,0.05614055985922249,-87.07828190820956,-1.6317549978387025,0.029053688049316406,4.217693090438843,-88.66917623508856,-0.032290908921204
43,1.09228515625,0.041844308688943954,-87.12267079662493,-1.6435729545399986,0.02882862091064453,4.246521711349487,-88.72643746497563,-0.04112901638017782
44,1.0810546875,0.04623916771401355,-87.16973194779763,-1.6452959277905128,0.028664827346801758,4.275186538696289,-88.77929080261173,-0.03821743430864853
45,1.079345703125,0.04824732272491374,-87.22474092578234,-1.6341060501866553,0.0285797119140625,4.303766250610352,-88.82363900489094,-0.03341764423987788
46,1.084228515625,0.05325158124538774,-87.26764925923514,-1.6351501838129523,0.029030799865722656,4.332797050476074,-88.87101597919846,-0.03154621054221456
47,1.083740234375,0.053888117166259096,-87.31529584919322,-1.6363001039993015,0.028797626495361328,4.3615946769714355,-88.9127937840225,-0.032749917267044806
48,1.09765625,0.04355337776319118,-87.35481986610552,-1.6613123332868787,0.02907872200012207,4.390673398971558,-88.98003423581451,-0.036434441691695824
49,1.0751953125,0.042208492629467714,-87.39790254273916,-1.6509880520707743,0.029324769973754883,4.4199981689453125,-89.00747158169676,-0.03628357898743677
50,1.06787109375,0.03626602861273995,-87.44640579735379,-1.644896411062687,0.028923749923706055,4.4489219188690186,-89.04712693996298,-0.03762166645622143
51,1.081787109375,0.045611786628592624,-87.48705143891998,-1.6394603851053624,0.02886652946472168,4.47778844833374,-89.08561238003132,-0.030677050221515033
52,1.08837890625,0.04165296295289551,-87.52628048194869,-1.6421253021324824,0.02870488166809082,4.506493330001831,-89.12025568593276,-0.03672843067130136
53,1.081298828125,0.04472718623781546,-87.56603532013726,-1.6409093320111998,0.02855062484741211,4.535043954849243,-89.16050698717474,-0.03322899832332864
54,1.08642578125,0.049784810365960795,-87.60558840583352,-1.6375470777670587,0.028902769088745117,4.563946723937988,-89.20540622032773,-0.03637130057516539
55,1.074951171875,0.047502029412829355,-87.64293695034519,-1.6369959784859691,0.028877735137939453,4.592824459075928,-89.24653371447873,-0.030927312546435982
56,1.080322265625,0.04417666302502639,-87.68400553925102,-1.6345634170584307,0.02909064292907715,4.621915102005005,-89.28516340399769,-0.037780998197208045
57,1.0791015625,0.044836844537139486,-87.71237267558443,-1.6381039709588439,0.028940677642822266,4.650855779647827,-89.32381231401307,-0.03605342628764004
58,1.083251953125,0.043137105342012774,-87.74321221402329,-1.6390005476358138,0.02936577796936035,4.6802215576171875,-89.3653309077411,-0.03701812017775264
59,1.09423828125,0.04415312782504799,-87.78258965787624,-1.654053052695359,0.0288236141204834,4.709045171737671,-89.42633429295228,-0.04420888878183102
60,1.07177734375,0.03115084541701563,-87.81387794712279,-1.652383560941551,0.0285336971282959,4.737578868865967,-89.45642847421769,-0.046670565360313214
61,1.0830078125,0.027469658366624117,-87.84379081224564,-1.6507846175726515,0.028725862503051758,4.7663047313690186,-89.48353553425906,-0.04593822453242935
62,1.091064453125,0.02112036552215656,-87.88138949267106,-1.6637859965806554,0.02876758575439453,4.795072317123413,-89.52781909694951,-0.048070589797411696
63,1.08984375,0.022820324484224556,-87.91625829163146,-1.6694457684420596,0.02927684783935547,4.8243491649627686,-89.55296046538984,-0.04586952285580645
64,1.08642578125,0.024164901515507466,-87.9427216937871,-1.660062676374526,0.02917957305908203,4.853528738021851,-89.5762895152814,-0.04550640144346395
65,1.066162109375,0.02616979799781035,-87.97618489741538,-1.6426692476802753,0.029311656951904297,4.882840394973755,-89.59376547422785,-0.04522875375688937
66,1.08349609375,0.03152728893551739,-87.99683102131691,-1.6402633547909797,0.02893376350402832,4.911774158477783,-89.62449121165976,-0.040564230270240496
67,1.080322265625,0.03716560202183985,-88.0167414037104,-1.6449446738862377,0.02861166000366211,4.940385818481445,-89.65297314030119,-0.03840789767264834
68,1.10498046875,0.04287843415446119,-88.04701329980985,-1.6675379694208994,0.02860879898071289,4.968994617462158,-89.7003164243849,-0.03641857950728256
69,1.08935546875,0.03157543605268472,-88.06949711356424,-1.6752190631602613,0.029149770736694336,4.9981443881988525,-89.72425156771233,-0.042200118355621784
70,1.086181640625,0.029923577348428834,-88.09152754525938,-1.6772686942575403,0.028835773468017578,5.02698016166687,-89.7442622164574,-0.04630465432856558
71,1.081298828125,0.023954056338223496,-88.12426578869727,-1.6674768940639846,0.028710603713989258,5.055690765380859,-89.76790836072394,-0.05634572252303898
72,1.072021484375,0.035000163419564384,-88.13975799836872,-1.6623393005559204,0.029257774353027344,5.084948539733887,-89.78781462180761,-0.05336354368577126
73,1.080322265625,0.032051734351372686,-88.16499575536528,-1.6657537209778768,0.02912759780883789,5.114076137542725,-89.80717765874465,-0.05390711111941515
74,1.075927734375,0.030094489925391342,-88.1885885148898,-1.6566448807722618,0.028841733932495117,5.14291787147522,-89.82704383581535,-0.05841990827495964
75,1.078125,0.011402662012403085,-88.21546374433488,-1.6570511937631835,0.028835773468017578,5.171753644943237,-89.84783248778328,-0.06988328903377604
76,1.086181640625,0.005432687086704107,-88.23241102222505,-1.6568547451623612,0.029414653778076172,5.2011682987213135,-89.86805308522833,-0.06995965989474409
77,1.102783203125,-0.005870036088074784,-88.2553630041693,-1.6737309141091814,0.028949737548828125,5.230118036270142,-89.90435916801403,-0.06880228413333543
78,1.07861328125,-0.006861951359200447,-88.2724275511099,-1.6728728826294912,0.03836464881896973,5.268482685089111,-89.92232036897813,-0.0640745361675794
79,1.090087890625,-0.014152351584328073,-88.29265304955707,-1.6690031227847875,0.028793811798095703,5.297276496887207,-89.9413243142804,-0.07097921223604683
80,1.104736328125,-0.008771206321145116,-88.31503262482846,-1.6713670800942129,0.029376506805419922,5.326653003692627,-89.9611810821185,-0.06679036564323473
81,1.083740234375,-0.006105946980575681,-88.33374023860993,-1.679066814850444,0.028860807418823242,5.35551381111145,-89.98701826394509,-0.06300215167862352
82,1.07666015625,-0.009739195633679145,-88.34845723564813,-1.67353565744647,0.029016733169555664,5.384530544281006,-90.00658667578313,-0.06036446125997751
83,1.0693359375,-0.009359709071515282,-88.36411634224741,-1.6753638751655637,0.02901172637939453,5.4135422706604,-90.0229349205722,-0.06169255998548235
84,1.082275390625,-0.018705768366033198,-88.38314175184186,-1.6747677606693023,0.02878570556640625,5.442327976226807,-90.03834552507013,-0.06551442934187837
85,1.080810546875,-0.02538680238374468,-88.4016646813729,-1.6739064821381202,0.028798580169677734,5.471126556396484,-90.05946621103331,-0.07488306569896723
86,1.101318359375,-0.02805467760967005,-88.42016667603774,-1.6944425999554755,0.02917170524597168,5.500298261642456,-90.10187461007654,-0.07320455638774087
87,1.080078125,-0.034047953939050045,-88.43938615299489,-1.6904499784220626,0.028828859329223633,5.52912712097168,-90.11831029572093,-0.07418431675607921
88,1.081787109375,-0.026378623048564122,-88.46140648938243,-1.683218095733412,0.02846360206604004,5.55759072303772,-90.13241466315594,-0.07391138641823697
89,1.07958984375,-0.028030396206453645,-88.48560470063923,-1.6833888595851434,0.02955770492553711,5.587148427963257,-90.15299949749034,-0.07013740337452914
90,1.0869140625,-0.03239826502233584,-88.49001401855251,-1.6868432473380668,0.029059886932373047,5.61620831489563,-90.1683418171875,-0.06463209342351499
91,1.083740234375,-0.045425102473739966,-88.50308813980058,-1.6847929130215074,0.02886366844177246,5.645071983337402,-90.1781402829905,-0.0709742813667276
92,1.0810546875,-0.042123462404451854,-88.51781285861502,-1.680139587568897,0.028859615325927734,5.67393159866333,-90.19119178435801,-0.07058912452808698
93,1.077880859375,-0.04346834753817532,-88.53722329113647,-1.6755320627475778,0.028577804565429688,5.70250940322876,-90.20709770561449,-0.06771663598151326
94,1.0908203125,-0.04712523877920475,-88.54715355632167,-1.677874421123017,0.02886056900024414,5.731369972229004,-90.22061557233447,-0.07572167756780981
95,1.08984375,-0.06251549751837189,-88.55617001433225,-1.6857116249164599,0.028514862060546875,5.759884834289551,-90.236099206463,-0.08318506455989821
96,1.0859375,-0.06718845619727247,-88.56757309846573,-1.6868254607192104,0.028902769088745117,5.788787603378296,-90.25562085985132,-0.08163191663366542
97,1.080078125,-0.07282666204689306,-88.58437127779415,-1.6849190309227127,0.02947854995727539,5.818266153335571,-90.26363356801889,-0.0844223273003453
98,1.100341796875,-0.06683323696125186,-88.6007347234468,-1.6825448585540355,0.028871774673461914,5.847137928009033,-90.27938470522197,-0.07501384499902163
99,1.10546875,-0.07216624179549981,-88.60757546594529,-1.7047792549672236,0.028771638870239258,5.8759095668792725,-90.3106867936361,-0.08001885834157375
100,1.08740234375,-0.07650769037633452,-88.6214690291665,-1.7001087755824995,0.028627872467041016,5.9045374393463135,-90.319682712535,-0.08371433194801378
101,1.099609375,-0.09184646679282053,-88.63487332480159,-1.7145235213696373,0.028670549392700195,5.933207988739014,-90.35167641965835,-0.09090997293882751
102,1.074951171875,-0.09049880524037973,-88.64982379897964,-1.7006661796049187,0.02884984016418457,5.962057828903198,-90.3559572731021,-0.08458167338324488
103,1.0859375,-0.09854784759675027,-88.65978571030446,-1.6935907693490726,0.02952861785888672,5.991586446762085,-90.36336193133856,-0.08085966790122374
104,1.086181640625,-0.11089034239571148,-88.66889754914149,-1.6959001416991852,0.029115676879882812,6.020702123641968,-90.3660571843755,-0.09048018816578468
0,1.0859375,-0.11957591438825901,-88.68466475110746,-1.6953178475389703,0.029115676879882812,6.050096035003662,-90.37111323997817,-0.09048018816578468
1,1.088623046875,-0.12292840666254805,-88.69823517447611,-1.6998696512163127,0.051969289779663086,6.102065324783325,-90.38079792422334,-0.09272642412385242
2,1.1044921875,-0.12498659576419115,-88.70241009784658,-1.7023565855457137,0.05481457710266113,6.156879901885986,-90.41448226395948,-0.09622518695436197
3,1.087646484375,-0.13133818227405214,-88.71215817586035,-1.6982709598628052,0.04418349266052246,6.201063394546509,-90.42617058071833,-0.09898949534722998
4,1.079833984375,-0.13001781975649962,-88.7263017053901,-1.6934426177448014,0.024594783782958984,6.225658178329468,-90.43074781004402,-0.09217132511537472
5,1.07763671875,-0.12468498286797938,-88.73858160589747,-1.6833941055574317,0.025028705596923828,6.250686883926392,-90.43360148066836,-0.08785581561197582
6,1.0771484375,-0.12608329361286139,-88.75100048187645,-1.6845734106856967,0.025015830993652344,6.275702714920044,-90.435102837264,-0.08536322030671842
7,1.084228515625,-0.12473842629988809,-88.75544404987882,-1.685081460010236,0.024580717086791992,6.300283432006836,-90.4349495785629,-0.0898473086486501
8,1.084228515625,-0.1283951340724154,-88.76626019955317,-1.6787203100174544,0.02511763572692871,6.325401067733765,-90.44566017922885,-0.08997511915283027
9,1.086181640625,-0.12907951057155145,-88.77567233862747,-1.6771582288937512,0.02478480339050293,6.350185871124268,-90.44578261293869,-0.09222993522012264
10,1.078857421875,-0.1504355617647444,-88.78629218595674,-1.674238937276714,0.024930715560913086,6.375116586685181,-90.44699784542124,-0.10942332826494004
11,1.083251953125,-0.16016084359823296,-88.79311012275782,-1.6697953171415771,0.02460789680480957,6.39972448348999,-90.45394710300863,-0.1146926604834129
12,1.087890625,-0.17085182975981283,-88.79723603212292,-1.6740673519247684,0.024786710739135742,6.424511194229126,-90.45912680737582,-0.1199761398469711
13,1.0791015625,-0.17356791512474842,-88.80014858414633,-1.6704802390707196,0.0248568058013916,6.449368000030518,-90.4710411181419,-0.1221774869583807
14,1.078857421875,-0.1635853378962585,-88.81261340959323,-1.670039287872357,0.024965763092041016,6.474333763122559,-90.47841501801668,-0.11454861514876605
15,1.080322265625,-0.15792043841064485,-88.81751389351938,-1.6687539399594782,0.024492740631103516,6.498826503753662,-90.49204309245178,-0.11128129411157338
16,1.08447265625,-0.1442807785777613,-88.82172470668061,-1.670298853438938,0.024793624877929688,6.523620128631592,-90.50973180528662,-0.09451780481362462
17,1.080810546875,-0.16066012382298012,-88.83063553073036,-1.671543176356133,0.024901866912841797,6.548521995544434,-90.5145721194817,-0.10334458540902342
18,1.086181640625,-0.17005440298159769,-88.83778194758209,-1.6681201802708627,0.024915695190429688,6.573437690734863,-90.52606314666659,-0.10595012976962731
19,1.08544921875,-0.17409083498063624,-88.84217466106493,-1.6724492992630855,0.0245058536529541,6.597943544387817,-90.54192298412664,-0.10966309529057296
20,1.067138671875,-0.16311671638159367,-88.85183396576312,-1.6554936609243676,0.024837732315063477,6.622781276702881,-90.53311564653818,-0.10306720935410915
21,1.08544921875,-0.16682203380801539,-88.85731439800817,-1.656110055413038,0.025098800659179688,6.6478800773620605,-90.53614615577261,-0.10666768520226069
22,1.087890625,-0.15983654924394458,-88.8611350464689,-1.6531470437150073,0.024802684783935547,6.672682762145996,-90.54521556729753,-0.10505971369742315
23,1.0830078125,-0.16422573761765122,-88.8680282006263,-1.6508675692880292,0.024623632431030273,6.697306394577026,-90.55244687871478,-0.11131495577184876
24,1.075439453125,-0.164934185440473,-88.8733903919474,-1.6460557357252106,0.024579763412475586,6.721886157989502,-90.55736837918684,-0.1151234614713146
25,1.07861328125,-0.16564207957806473,-88.88243989173952,-1.6420842599803993,0.0252227783203125,6.7471089363098145,-90.55604298388283,-0.10912862284340709
26,1.0869140625,-0.1613454321134175,-88.88669236206671,-1.637136092846485,0.024814844131469727,6.771923780441284,-90.56271719089648,-0.1052880674327043
27,1.097900390625,-0.16065520227151595,-88.8920741065481,-1.6574727059336665,0.024675607681274414,6.796599388122559,-90.58573440638854,-0.10135652443857754
28,1.08740234375,-0.15902670510429204,-88.90165019286789,-1.662892129285273,0.024943828582763672,6.821543216705322,-90.59213709930316,-0.10656082048557478
29,1.0986328125,-0.15539337391109767,-88.90544026099842,-1.6618989062405483,0.024930715560913086,6.846473932266235,-90.59403578146444,-0.10244479169055092
30,1.088623046875,-0.1617636759100415,-88.9036090517951,-1.6640826349435593,0.024766921997070312,6.871240854263306,-90.594368186669,-0.10560060072951989
31,1.07373046875,-0.15312540066691382,-88.92052894966567,-1.6514384505988877,0.0253145694732666,6.896555423736572,-90.58779139609476,-0.08910970195146704
32,1.08056640625,-0.14583524074570178,-88.92657395240768,-1.654349146151541,0.028740882873535156,6.925296306610107,-90.59300227652206,-0.08149952814817457
33,1.070556640625,-0.14687479672267004,-88.94125819107087,-1.6591277490076732,0.02888774871826172,6.954184055328369,-90.59625750842774,-0.07559219971538518
34,1.099365234375,-0.14491789999019006,-88.95077501471587,-1.6757069983452286,0.02928447723388672,6.983468532562256,-90.62354324706544,-0.07404755612011328
35,1.082275390625,-0.1462628252439383,-88.95406274051709,-1.6762854154023696,0.028970718383789062,7.012439250946045,-90.62569038970278,-0.0706013945773763
36,1.083740234375,-0.140293495126309,-88.96266502972546,-1.6775125471576762,0.028972864151000977,7.041412115097046,-90.63611496620402,-0.07022050741452635
37,1.076904296875,-0.1346287816792534,-88.97641432480447,-1.6692729884197912,0.028696775436401367,7.070108890533447,-90.64440327750421,-0.06846967059962612
38,1.0810546875,-0.12967502689258795,-88.9799185277511,-1.6644843513756196,0.030477523803710938,7.100586414337158,-90.64398512373428,-0.06367383466493227
39,1.08251953125,-0.13173092972118894,-88.98244865644133,-1.664178538889874,0.02900075912475586,7.129587173461914,-90.65103083654624,-0.06507336465862161
40,1.07421875,-0.12705804896238904,-88.98580454704374,-1.6648206708577802,0.02905583381652832,7.158643007278442,-90.65480100232759,-0.05698167665875397
41,1.085205078125,-0.11641466142027795,-88.9916858978752,-1.6693206969247925,0.028812646865844727,7.187455654144287,-90.66897076729533,-0.0469584826781994
42,1.076171875,-0.11212130379963313,-89.00424532468986,-1.661230510340004,0.02925872802734375,7.216714382171631,-90.6627214898397,-0.042988618005291676
43,1.075927734375,-0.11110513246812516,-89.00435607662459,-1.6583452284666917,0.02889275550842285,7.245607137680054,-90.65803332729773,-0.03893758455808498
44,1.0791015625,-0.09779724698934344,-89.01587482656183,-1.6612247077272524,0.028700590133666992,7.274307727813721,-90.66161054135534,-0.035700310991083485
45,1.073974609375,-0.10079386502711046,-89.02425384186364,-1.6566273589081102,0.028636693954467773,7.3029444217681885,-90.66058418347131,-0.03651297098605525
46,1.08056640625,-0.09883726413541978,-89.02793837217583,-1.657889527475522,0.02887868881225586,7.331823110580444,-90.66731165651211,-0.03287866783566684
47,1.1064453125,-0.10051359966077968,-89.03212392017863,-1.6776335548273176,0.028940677642822266,7.360763788223267,-90.6928915316502,-0.026322003838221978
48,1.087158203125,-0.09680600588524385,-89.02558038986676,-1.679947109946485,0.028932809829711914,7.3896965980529785,-90.69027523577013,-0.026092978956355185
49,1.082763671875,-0.07811389410328318,-89.0264728359682,-1.676422849985551,0.029066801071166992,7.4187633991241455,-90.69188462677876,-0.014590733218046931
50,1.081298828125,-0.06577139282662642,-89.03285524511695,-1.6773978005760082,0.029146671295166016,7.4479100704193115,-90.68973583700637,-0.0054212217352188445
51,1.080078125,-0.05708567514574099,-89.03139233941964,-1.6850196401979671,0.028844594955444336,7.476754665374756,-90.69108192345358,0.008592924536855931
52,1.07958984375,-0.05301977501642924,-89.02888206680092,-1.6863581827869143,0.02870774269104004,7.505462408065796,-90.69590117253924,0.013648080626498737
53,1.080078125,-0.05329796342008592,-89.03191196131988,-1.6806365571662951,0.028563737869262695,7.534026145935059,-90.69854598739785,0.01667350527226671
54,1.10595703125,-0.05763939724576005,-89.04075471724104,-1.698818160187517,0.028932809829711914,7.5629589557647705,-90.7248802638405,0.010712839209833102
55,1.100341796875,-0.07269738097269254,-89.03761738209346,-1.7183784348440652,0.02885270118713379,7.591811656951904,-90.74605219922576,0.005103916947691034
56,1.08447265625,-0.06995433914285855,-89.03002311003051,-1.70599816132541,0.028896570205688477,7.620708227157593,-90.74227202204497,0.009213538879606535
57,1.091064453125,-0.0679466432164287,-89.03371453141212,-1.7114442245798362,0.029195785522460938,7.649904012680054,-90.73935335044834,0.01927633501731707
58,1.082275390625,-0.06228222441623274,-89.0348999583185,-1.7053792648660346,0.02904963493347168,7.678953647613525,-90.73859647256437,0.02174763643625239
59,1.076416015625,-0.07762148907714547,-89.04193712606762,-1.698343547627045,0.028685808181762695,7.707639455795288,-90.73228401656252,0.01737848457917748
60,1.08837890625,-0.06426368507275214,-89.0478078644851,-1.6980890312935462,0.028540611267089844,7.736180067062378,-90.73042595017634,0.03224415625542603
61,1.079345703125,-0.05654333093756748,-89.05474639102424,-1.697268600139518,0.02859973907470703,7.764779806137085,-90.73290551210589,0.037818389891978325
62,1.086669921875,-0.051210084935632665,-89.05281741059159,-1.6903460460152822,0.02891373634338379,7.793693542480469,-90.74024179136242,0.04151842188279363
63,1.080078125,-0.04747789750266122,-89.05818474699294,-1.6888457372075862,0.0293426513671875,7.823036193847656,-90.73678962105593,0.046034221857392546
64,1.083984375,-0.056495256873788265,-89.0592627367648,-1.6909509998314685,0.02918076515197754,7.852216958999634,-90.73365994226793,0.03998919032847079
65,1.08349609375,-0.05443958236740002,-89.05924704167673,-1.692364805304418,0.02928781509399414,7.881504774093628,-90.73503416993347,0.037607855392161584
66,1.08349609375,-0.06607400982133683,-89.05491288162148,-1.6909142348387256,0.028836727142333984,7.910341501235962,-90.72719424521824,0.03181516152455353
67,1.0791015625,-0.049694664576118014,-89.05549531254992,-1.6886010687850668,0.02862858772277832,7.93897008895874,-90.73296611821982,0.04043883156898466
68,1.0859375,-0.0376326417183607,-89.05117547490757,-1.6845248527133958,0.028543710708618164,7.967513799667358,-90.73914790047357,0.04990823215845029
69,1.071044921875,-0.03892936551846844,-89.05520089384311,-1.6788489205226584,0.02909374237060547,7.996607542037964,-90.7319993068134,0.049625602275426166
70,1.078857421875,-0.03855287258731934,-89.0560811257589,-1.6788039879540306,0.028635740280151367,8.025243282318115,-90.72645409600253,0.06412166415272569
71,1.08056640625,-0.0362187267245082,-89.05615702022773,-1.6777930791542393,0.028896808624267578,8.054140090942383,-90.72482050825008,0.07205474760202361
72,1.07763671875,-0.03685524290046558,-89.05276913032837,-1.6769028930627439,0.029311656951904297,8.083451747894287,-90.72397955568893,0.07888147785445092
73,1.086181640625,-0.03751841668394775,-89.05299893969868,-1.6774681129651536,0.029147624969482422,8.11259937286377,-90.7223701245106,0.08032342856859896
74,1.084228515625,-0.02914027921736789,-89.04654425106978,-1.6859009179492646,0.029050827026367188,8.141650199890137,-90.73180903313838,0.07846584786976335
75,1.0927734375,-0.03843802659836811,-89.04900085364622,-1.694173906732217,0.02879166603088379,8.17044186592102,-90.74566053097807,0.06922883425219893
76,1.0859375,-0.04240327817776631,-89.0483622397108,-1.6949372546868533,0.028644800186157227,8.199086666107178,-90.75171675486773,0.05775290057525765
77,1.095458984375,-0.04042561547988612,-89.04044440237297,-1.7018442606274093,0.029002666473388672,8.228089332580566,-90.761190222836,0.06985197906536393
78,1.074951171875,-0.041722620715828496,-89.04953716423041,-1.6970158171636902,0.028885602951049805,8.256974935531616,-90.7606647088765,0.07538766546966578
79,1.083251953125,-0.04205417004281941,-89.05009910489512,-1.6956019426531483,0.029269695281982422,8.286244630813599,-90.75744524453471,0.07794409180304179
80,1.0888671875,-0.03367600902508215,-89.0494196271791,-1.7012651425436427,0.029101848602294922,8.315346479415894,-90.76394264488817,0.0753783997203881
81,1.0791015625,-0.03365290957526852,-89.05310122012088,-1.6910017845456984,0.029096603393554688,8.344443082809448,-90.76166570480024,0.07785211889555427
82,1.072998046875,-0.026263786495082257,-89.05640346937778,-1.6789502600937103,0.02875065803527832,8.373193740844727,-90.74237076316422,0.07744153255324457
83,1.0888671875,-0.025552807083044086,-89.05301279053319,-1.6893621669155194,0.02857184410095215,8.401765584945679,-90.74998226458615,0.08082711537102757
84,1.077880859375,-0.027178324391130673,-89.0570366669572,-1.6856408504488112,0.028568744659423828,8.430334329605103,-90.75322924248039,0.08035918122735292
85,1.08203125,-0.01912899647688846,-89.06284571329745,-1.6898123247269046,0.02876758575439453,8.459101915359497,-90.75161132912673,0.08549036690635296
86,1.08203125,-0.009735032324702218,-89.06875168995097,-1.6925885377020096,0.029529809951782227,8.48863172531128,-90.74882806998664,0.087906529023193
87,1.081298828125,-0.002345909244515951,-89.0697348946937,-1.689174951333947,0.029193639755249023,8.517825365066528,-90.74674236273327,0.09165878134865792
88,1.080322265625,-0.003618395602814104,-89.07840679495895,-1.6797013820609312,0.028935670852661133,8.54676103591919,-90.73882255098013,0.08983773190393704
89,1.07373046875,0.008443907631301357,-89.08433752544482,-1.6780589091170173,0.028888702392578125,8.575649738311768,-90.74803275558969,0.09436784558629842
90,1.081787109375,0.019161285611668574,-89.08392870055856,-1.682975338469532,0.028557777404785156,8.604207515716553,-90.75131971694478,0.10490947256448463
91,1.089599609375,0.02088486591560539,-89.0821711117283,-1.6853710800044581,0.028728723526000977,8.632936239242554,-90.75774911307458,0.10022210127104733
92,1.0771484375,0.03061059724200902,-89.08753495482354,-1.6784051653684275,0.0291748046875,8.662111043930054,-90.74444415755909,0.10155059151794885
93,1.09130859375,0.024261196585211024,-89.08423217491448,-1.6713890385708987,0.028906583786010742,8.691017627716064,-90.74893935257914,0.0984894856009036
94,1.072998046875,0.025632375235195185,-89.08947574062665,-1.6741231690909844,0.02895069122314453,8.719968318939209,-90.75639399760297,0.09816513337367506
95,1.08251953125,0.03264175363261103,-89.0855964268875,-1.671364634682169,0.029108762741088867,8.749077081680298,-90.75102809418614,0.10295218681331228
96,1.080810546875,0.03497821217948569,-89.08643362208765,-1.6680490635765062,0.029024839401245117,8.778101921081543,-90.75133096269693,0.1008599672994598
97,1.077880859375,0.043664362154197674,-89.0882307553927,-1.6657039712751844,0.028549671173095703,8.806651592254639,-90.74831751600357,0.10264076700162898
98,1.079833984375,0.05702346910191039,-89.09100785224581,-1.6571603963216752,0.028764724731445312,8.835416316986084,-90.7474982373906,0.1076722463122565
99,1.08251953125,0.05702346910191039,-89.08880928891597,-1.6476834803021485,0.028644561767578125,8.864060878753662,-90.75007109518272,0.10885376873365063
100,1.070556640625,0.04935377945815233,-89.09150554198844,-1.6410614711686826,0.02929091453552246,8.893351793289185,-90.75047914634641,0.10180927657419728
101,1.081298828125,0.051690348787956995,-89.0955225425366,-1.6372794575928864,0.028937578201293945,8.922289371490479,-90.74160609330346,0.0969983649795562
102,1.08544921875,0.06037649876266897,-89.09425718816344,-1.6405937232188383,0.029100656509399414,8.951390027999878,-90.73937850176587,0.09952751032667707
103,1.07861328125,0.06604091756286494,-89.09435171058281,-1.6417592355935717,0.02880382537841797,8.980193853378296,-90.73889464066625,0.10221892088333925
104,1.086669921875,0.0667256055763427,-89.09471958972901,-1.6439341791015054,0.02891063690185547,9.009104490280151,-90.73780553485796,0.09488563846347149
105,1.087890625,0.0807438118533203,-89.0941917062542,-1.6477257400486618,0.028494834899902344,9.037599325180054,-90.72836588216609,0.10482894916903225
0,1.07861328125,0.0793990807683683,-89.09820893245043,-1.6474227573135538,0.028494834899902344,9.066612958908081,-90.72303435198764,0.10482894916903225
1,1.089599609375,0.07371009269254727,-89.0968657167035,-1.652762212750935,0.05123543739318848,9.11784839630127,-90.71762773197766,0.10184913899335557
2,1.083740234375,0.07599284361839721,-89.09941042268339,-1.654775150567486,0.05254364013671875,9.170392036437988,-90.7207919177272,0.1035386059550803
3,1.075927734375,0.08033438662544995,-89.0977428845191,-1.6511206858590797,0.04181337356567383,9.212205410003662,-90.71250851442923,0.10313338069890929
4,1.0830078125,0.08660561354888884,-89.10257023329817,-1.6449620683117094,0.02462291717529297,9.236828327178955,-90.71472484418013,0.09666032051874103
5,1.08203125,0.08558951148085299,-89.10390309225261,-1.6441260862316884,0.02487468719482422,9.26170301437378,-90.7184074281016,0.08892181023616276
6,1.0888671875,0.09833610352046918,-89.10798826578609,-1.6441149234409878,0.024634838104248047,9.286337852478027,-90.71485077778262,0.09252681410075522
7,1.08642578125,0.10900285237193444,-89.1053269721119,-1.6515331825314192,0.024964570999145508,9.311302423477173,-90.71949001445347,0.09728755888252431
8,1.074951171875,0.11570710443908325,-89.1167882615508,-1.6497727502465318,0.0246429443359375,9.33594536781311,-90.71754868005641,0.10198413986076367
9,1.078369140625,0.10935770378228525,-89.11874783599201,-1.6480502934656458,0.024924755096435547,9.360870122909546,-90.715716244772,0.10023929854627792
10,1.068115234375,0.11062951274081158,-89.1131327378709,-1.6363794774074643,0.024522781372070312,9.385392904281616,-90.7026798438739,0.10980186507759469
11,1.083251953125,0.10295971323261482,-89.11396624705192,-1.6411000576717105,0.025365591049194336,9.41075849533081,-90.70182105077463,0.103180257839978
12,1.080810546875,0.09623078933009353,-89.11528303903896,-1.6439729336152533,0.02461385726928711,9.435372352600098,-90.70553908627663,0.09747782231822154
13,1.08251953125,0.10654227387224864,-89.11414656982627,-1.6435107721270812,0.025011777877807617,9.460384130477905,-90.70225535634053,0.10109905745065668
14,1.08544921875,0.10517394800742849,-89.11783717241498,-1.638769733504993,0.024899721145629883,9.485283851623535,-90.7085049712172,0.1090953926193072
15,1.08154296875,0.11718849098405684,-89.12496695052592,-1.6389307005772717,0.025075674057006836,9.510359525680542,-90.71065855002463,0.10928045009624934
16,1.076171875,0.11381210901188595,-89.12766320896107,-1.6353841284749657,0.024616718292236328,9.534976243972778,-90.7077077331453,0.10249540007347654
17,1.0810546875,0.10512862120846236,-89.13079736885874,-1.6370801192390485,0.025052785873413086,9.560029029846191,-90.70278255538243,0.09364437699378082
18,1.079345703125,0.09875565536481204,-89.13232370375422,-1.6306404377460941,0.024594783782958984,9.58462381362915,-90.70650306475004,0.08720584608907876
19,1.08203125,0.10871361428899107,-89.13115440172936,-1.629940070610872,0.025476694107055664,9.610100507736206,-90.71373450794275,0.09887055712964309
20,1.087890625,0.11534402136536684,-89.1333005377954,-1.6330763668784072,0.024684906005859375,9.634785413742065,-90.71535159149913,0.10217743955259241
21,1.083740234375,0.11598082998795732,-89.13137474634419,-1.625347985806519,0.0250396728515625,9.659825086593628,-90.71065793221837,0.10932561708850873
22,1.0859375,0.1142565316678757,-89.12419302958874,-1.6296397794463071,0.024677753448486328,9.684502840042114,-90.70778583545562,0.09862553253778956
23,1.077392578125,0.11392787251768681,-89.1301812313397,-1.6344602683151745,0.025121688842773438,9.709624528884888,-90.70574322652168,0.09136447517786443
24,1.078125,0.1096136768280941,-89.13309203181562,-1.633386628519485,0.02442169189453125,9.734046220779419,-90.71048926599175,0.08916307999009346
25,1.076904296875,0.09955919462195538,-89.13275046673651,-1.6326803884507808,0.03127789497375488,9.765324115753174,-90.70708582335006,0.08358634425099659
26,1.0810546875,0.08716808183550227,-89.13518582188416,-1.6326699196586165,0.025253772735595703,9.79057788848877,-90.70549579223946,0.07406236024961271
27,1.078369140625,0.09146216075015942,-89.1343312735264,-1.6322248362803662,0.025018692016601562,9.815596580505371,-90.70659677992438,0.07728486509386215
28,1.0849609375,0.09575587111774155,-89.13377792909044,-1.6371736274719009,0.025173664093017578,9.840770244598389,-90.71020270875584,0.08050679550633387
29,1.0849609375,0.0933959470695747,-89.14005571466372,-1.6308356511687463,0.0243988037109375,9.865169048309326,-90.70289329361322,0.07408814927148501
30,1.063720703125,0.08268156716207557,-89.14125379793795,-1.6213994256859354,0.02553582191467285,9.890704870223999,-90.7031593553487,0.07247730858828437
31,1.085205078125,0.07996576959328806,-89.13352428475481,-1.622976152384061,0.02905869483947754,9.919763565063477,-90.7090488802317,0.07322679668443577
32,1.082763671875,0.08525136855976456,-89.1287359880989,-1.6231714066649907,0.02910470962524414,9.94886827468872,-90.71027093370958,0.0751170852843809
33,1.0751953125,0.07384927652281065,-89.13001048380589,-1.6150892271414106,0.02910161018371582,9.977969884872437,-90.70920815585673,0.0693353961722359
34,1.09033203125,0.057774147975126054,-89.12338277665256,-1.606723325911007,0.028850793838500977,10.006820678710938,-90.71325916157075,0.0602378277367882
35,1.0791015625,0.0520373832339601,-89.12211636915146,-1.6071440994627038,0.02862858772277832,10.035449266433716,-90.71911448598037,0.05209987932506912
36,1.03564453125,0.046704010768689415,-89.08611513613242,-1.6386608562741136,0.028713703155517578,10.064162969589233,-90.73374427916833,0.04899092938915787
37,1.065185546875,0.04866109233366643,-89.07559495738653,-1.6483351275771458,0.02943587303161621,10.09359884262085,-90.7237507666372,0.04581558241012244
38,1.072265625,0.042616814905351956,-89.08029644356226,-1.6531907775809258,0.02892160415649414,10.122520446777344,-90.72398672921126,0.04191771180554639
39,1.091796875,0.044242367632025575,-89.07826105880908,-1.6556059247669157,0.029495716094970703,10.152016162872314,-90.7235641791849,0.043784544072872
40,1.0869140625,0.041221117151986564,-89.07886169849598,-1.6563814962274943,0.02924966812133789,10.181265830993652,-90.72844237971542,0.037399589759266126
41,1.086181640625,0.0358368908488076,-89.08065071540275,-1.653273965551834,0.029030799865722656,10.210296630859375,-90.72787542443761,0.02900652306731248
42,1.0859375,0.028827076399455507,-89.08048521963268,-1.6597305412399173,0.028764724731445312,10.23906135559082,-90.72924526792634,0.020726487860355924
43,1.083984375,0.02382211347513504,-89.07998023046748,-1.661448007039952,0.028606653213500977,10.267668008804321,-90.73029001772231,0.018543460980670334
44,1.0859375,0.029460426561457496,-89.08214499164241,-1.651424820088827,0.02868175506591797,10.29634976387024,-90.73090808397517,0.014860759482411631
45,1.081298828125,0.025752680353262038,-89.08542764035809,-1.6499002042224917,0.029132604598999023,10.325482368469238,-90.72941706446208,0.0064847778444669804
46,1.085205078125,0.0033282186515066316,-89.08573124492536,-1.645874238138323,0.028715848922729492,10.354198217391968,-90.72587230940198,-0.007530287296392933
47,1.08935546875,0.0026680220381547315,-89.08387308913426,-1.6509827562647252,0.02913975715637207,10.38333797454834,-90.72504169544335,-0.013463901417334775
48,1.076171875,0.006961449990753721,-89.0861884270677,-1.6460459376377783,0.0291135311126709,10.41245150566101,-90.7270848977409,-0.007345162879517483
49,1.08544921875,0.013286563232617255,-89.08671871889437,-1.6429486192612401,0.028992891311645508,10.441444396972656,-90.73110955598266,-0.004498524925683145
50,1.091064453125,0.021972713207329235,-89.08890407239124,-1.6449296868281886,0.028792619705200195,10.470237016677856,-90.73161843352815,-0.0034838559401736175
51,1.078857421875,0.021264070464614804,-89.08742907338669,-1.6393156134744635,0.028682708740234375,10.49891972541809,-90.72778220121106,-0.005237270213960287
52,1.0859375,0.023654421860282042,-89.08931810626848,-1.6380797232538313,0.028864622116088867,10.52778434753418,-90.73093349833083,-0.008927844216451371
53,1.0908203125,0.023985688780126822,-89.08962069201647,-1.6373559344258202,0.0284578800201416,10.556242227554321,-90.73251114974929,-0.016474279588020387
54,1.08203125,0.021371315055651364,-89.0984213293897,-1.6354570877638672,0.028958559036254883,10.585200786590576,-90.72757998021763,-0.01797894338546186
55,1.07421875,0.019719541897761844,-89.10385343423098,-1.6139320729709679,0.029231786727905273,10.614432573318481,-90.72117856397091,-0.014556621992365836
56,1.074951171875,0.014667257576002015,-89.11308883110054,-1.606875171856952,0.02900075912475586,10.643433332443237,-90.71321072674918,-0.01880591030318629
57,1.088623046875,0.005626061451210375,-89.11696127157487,-1.6092958818833034,0.02876877784729004,10.672202110290527,-90.7201668564837,-0.02901853555995325
58,1.0849609375,0.013651868950976222,-89.11910121904775,-1.6148768742067359,0.028592586517333984,10.700794696807861,-90.73805882717342,-0.027617863690677216
59,1.08251953125,0.01929028927704195,-89.11961750234435,-1.6241112332767056,0.02881169319152832,10.72960638999939,-90.7387060959558,-0.024750928407009272
60,1.108154296875,0.03331005289848235,-89.10736059096755,-1.6281267724738702,0.028810739517211914,10.758417129516602,-90.75163877801158,-0.02483993100592873
61,1.089599609375,0.043316458928793225,-89.10638073173914,-1.631736591529745,0.028854846954345703,10.787271976470947,-90.75553158259187,-0.0172095904850404
62,1.072509765625,0.050045382831314524,-89.10682691992378,-1.634874819969238,0.029463529586791992,10.81673550605774,-90.76047927588424,-0.014127313767137906
63,1.08203125,0.051416563252790724,-89.10779494351516,-1.6313675924688662,0.028999805450439453,10.845735311508179,-90.75513644833295,-0.015069797842583743
64,1.07958984375,0.053116397509776904,-89.11864205120193,-1.6291839464009503,0.028885602951049805,10.874620914459229,-90.75196404689608,-0.01833385693792701
65,1.090087890625,0.05115888707202515,-89.1233504198548,-1.632760218328172,0.02869272232055664,10.903313636779785,-90.76752831088874,-0.01879009694571984
66,1.082275390625,0.06322113001946207,-89.11967020460004,-1.631909237732677,0.02859783172607422,10.93191146850586,-90.76549169245752,-0.020383974624437706
